{
"type": "FeatureCollection",
"name": "clis",
"crs": { "type": "name", "properties": { "name": "urn:ogc:def:crs:OGC:1.3:CRS84" } },
"features": [
{ "type": "Feature", "properties": { "name": "Werkplaats Roeselare", "address": "Beverensteenweg 177  BE- 8800 Roeselare" }, "geometry": { "type": "Point", "coordinates": [ 3.1304148, 50.9569791 ] } },
{ "type": "Feature", "properties": { "name": "South City", "address": "Place Marcel Broodthaers 2 1060 Bruxelles" }, "geometry": { "type": "Point", "coordinates": [ 4.337664, 50.8329984 ] } },
{ "type": "Feature", "properties": { "name": "Ringstation", "address": "Rue des Deux Gares, 82 1070 Anderlecht" }, "geometry": { "type": "Point", "coordinates": [ 4.3269562, 50.8322244 ] } },
{ "type": "Feature", "properties": { "name": "Recycling Office", "address": "Place Marcel Broodthaers, 2 - 1060 Bruxelles" }, "geometry": { "type": "Point", "coordinates": [ 4.3382224, 50.835775 ] } },
{ "type": "Feature", "properties": { "name": "LCI–Antenne Antwerpen-Oost", "address": "Draakplaats  BE- 2018 Antwerpen" }, "geometry": { "type": "Point", "coordinates": [ 4.4322243, 51.205755 ] } },
{ "type": "Feature", "properties": { "name": "LCI-Antenne Zottegem", "address": "Broeder Mareslaan  BE- 9620 Zottegem" }, "geometry": { "type": "Point", "coordinates": [ 3.8160958, 50.871231 ] } },
{ "type": "Feature", "properties": { "name": "LCI-Antenne Zeebrugge", "address": "New Yorklaan  BE- 8380 Zeebrugge" }, "geometry": { "type": "Point", "coordinates": [ 3.1860466000001, 51.3303575 ] } },
{ "type": "Feature", "properties": { "name": "LCI-Antenne Zaventem", "address": "Heldenplein  BE- 1930 Zaventem" }, "geometry": { "type": "Point", "coordinates": [ 4.4714456, 50.8849484 ] } },
{ "type": "Feature", "properties": { "name": "LCI-Antenne Wondelgem", "address": "Molenstraat thv 37  BE- 9032 Wondelgem" }, "geometry": { "type": "Point", "coordinates": [ 3.7145649, 51.0854564 ] } },
{ "type": "Feature", "properties": { "name": "Werkplaats Roeselare", "address": "Beverensteenweg 177  BE- 8800 Roeselare" }, "geometry": { "type": "Point", "coordinates": [ 3.1304148, 50.9569791 ] } },
{ "type": "Feature", "properties": { "name": "South City", "address": "Place Marcel Broodthaers 2 1060 Bruxelles" }, "geometry": { "type": "Point", "coordinates": [ 4.337664, 50.8329984 ] } },
{ "type": "Feature", "properties": { "name": "Ringstation", "address": "Rue des Deux Gares, 82 1070 Anderlecht" }, "geometry": { "type": "Point", "coordinates": [ 4.3269562, 50.8322244 ] } },
{ "type": "Feature", "properties": { "name": "Recycling Office", "address": "Place Marcel Broodthaers, 2 - 1060 Bruxelles" }, "geometry": { "type": "Point", "coordinates": [ 4.3382224, 50.835775 ] } },
{ "type": "Feature", "properties": { "name": "LCI–Antenne Antwerpen-Oost", "address": "Draakplaats  BE- 2018 Antwerpen" }, "geometry": { "type": "Point", "coordinates": [ 4.4322243, 51.205755 ] } },
{ "type": "Feature", "properties": { "name": "LCI-Antenne Zottegem", "address": "Broeder Mareslaan  BE- 9620 Zottegem" }, "geometry": { "type": "Point", "coordinates": [ 3.8160958, 50.871231 ] } },
{ "type": "Feature", "properties": { "name": "LCI-Antenne Zeebrugge", "address": "New Yorklaan  BE- 8380 Zeebrugge" }, "geometry": { "type": "Point", "coordinates": [ 3.1860466000001, 51.3303575 ] } },
{ "type": "Feature", "properties": { "name": "LCI-Antenne Zaventem", "address": "Heldenplein  BE- 1930 Zaventem" }, "geometry": { "type": "Point", "coordinates": [ 4.4714456, 50.8849484 ] } },
{ "type": "Feature", "properties": { "name": "LCI-Antenne Wondelgem", "address": "Molenstraat thv 37  BE- 9032 Wondelgem" }, "geometry": { "type": "Point", "coordinates": [ 3.7145649, 51.0854564 ] } },
{ "type": "Feature", "properties": { "name": "Werkplaats Roeselare", "address": "Beverensteenweg 177  BE- 8800 Roeselare" }, "geometry": { "type": "Point", "coordinates": [ 3.1304148, 50.9569791 ] } },
{ "type": "Feature", "properties": { "name": "South City", "address": "Place Marcel Broodthaers 2 1060 Bruxelles" }, "geometry": { "type": "Point", "coordinates": [ 4.337664, 50.8329984 ] } },
{ "type": "Feature", "properties": { "name": "Ringstation", "address": "Rue des Deux Gares, 82 1070 Anderlecht" }, "geometry": { "type": "Point", "coordinates": [ 4.3269562, 50.8322244 ] } },
{ "type": "Feature", "properties": { "name": "Recycling Office", "address": "Place Marcel Broodthaers, 2 - 1060 Bruxelles" }, "geometry": { "type": "Point", "coordinates": [ 4.3382224, 50.835775 ] } },
{ "type": "Feature", "properties": { "name": "LCI–Antenne Antwerpen-Oost", "address": "Draakplaats  BE- 2018 Antwerpen" }, "geometry": { "type": "Point", "coordinates": [ 4.4322243, 51.205755 ] } },
{ "type": "Feature", "properties": { "name": "LCI-Antenne Zottegem", "address": "Broeder Mareslaan  BE- 9620 Zottegem" }, "geometry": { "type": "Point", "coordinates": [ 3.8160958, 50.871231 ] } },
{ "type": "Feature", "properties": { "name": "LCI-Antenne Zeebrugge", "address": "New Yorklaan  BE- 8380 Zeebrugge" }, "geometry": { "type": "Point", "coordinates": [ 3.1860466000001, 51.3303575 ] } },
{ "type": "Feature", "properties": { "name": "LCI-Antenne Zaventem", "address": "Heldenplein  BE- 1930 Zaventem" }, "geometry": { "type": "Point", "coordinates": [ 4.4714456, 50.8849484 ] } },
{ "type": "Feature", "properties": { "name": "LCI-Antenne Wondelgem", "address": "Molenstraat thv 37  BE- 9032 Wondelgem" }, "geometry": { "type": "Point", "coordinates": [ 3.7145649, 51.0854564 ] } },
{ "type": "Feature", "properties": { "name": "Werkplaats Roeselare", "address": "Beverensteenweg 177  BE- 8800 Roeselare" }, "geometry": { "type": "Point", "coordinates": [ 3.1304148, 50.9569791 ] } },
{ "type": "Feature", "properties": { "name": "South City", "address": "Place Marcel Broodthaers 2 1060 Bruxelles" }, "geometry": { "type": "Point", "coordinates": [ 4.337664, 50.8329984 ] } },
{ "type": "Feature", "properties": { "name": "Ringstation", "address": "Rue des Deux Gares, 82 1070 Anderlecht" }, "geometry": { "type": "Point", "coordinates": [ 4.3269562, 50.8322244 ] } },
{ "type": "Feature", "properties": { "name": "Recycling Office", "address": "Place Marcel Broodthaers, 2 - 1060 Bruxelles" }, "geometry": { "type": "Point", "coordinates": [ 4.3382224, 50.835775 ] } },
{ "type": "Feature", "properties": { "name": "LCI–Antenne Antwerpen-Oost", "address": "Draakplaats  BE- 2018 Antwerpen" }, "geometry": { "type": "Point", "coordinates": [ 4.4322243, 51.205755 ] } },
{ "type": "Feature", "properties": { "name": "LCI-Antenne Zottegem", "address": "Broeder Mareslaan  BE- 9620 Zottegem" }, "geometry": { "type": "Point", "coordinates": [ 3.8160958, 50.871231 ] } },
{ "type": "Feature", "properties": { "name": "LCI-Antenne Zeebrugge", "address": "New Yorklaan  BE- 8380 Zeebrugge" }, "geometry": { "type": "Point", "coordinates": [ 3.1860466000001, 51.3303575 ] } },
{ "type": "Feature", "properties": { "name": "LCI-Antenne Zaventem", "address": "Heldenplein  BE- 1930 Zaventem" }, "geometry": { "type": "Point", "coordinates": [ 4.4714456, 50.8849484 ] } },
{ "type": "Feature", "properties": { "name": "LCI-Antenne Wondelgem", "address": "Molenstraat thv 37  BE- 9032 Wondelgem" }, "geometry": { "type": "Point", "coordinates": [ 3.7145649, 51.0854564 ] } },
{ "type": "Feature", "properties": { "name": "Werkplaats Roeselare", "address": "Beverensteenweg 177  BE- 8800 Roeselare" }, "geometry": { "type": "Point", "coordinates": [ 3.1304148, 50.9569791 ] } },
{ "type": "Feature", "properties": { "name": "South City", "address": "Place Marcel Broodthaers 2 1060 Bruxelles" }, "geometry": { "type": "Point", "coordinates": [ 4.337664, 50.8329984 ] } },
{ "type": "Feature", "properties": { "name": "Ringstation", "address": "Rue des Deux Gares, 82 1070 Anderlecht" }, "geometry": { "type": "Point", "coordinates": [ 4.3269562, 50.8322244 ] } },
{ "type": "Feature", "properties": { "name": "Recycling Office", "address": "Place Marcel Broodthaers, 2 - 1060 Bruxelles" }, "geometry": { "type": "Point", "coordinates": [ 4.3382224, 50.835775 ] } },
{ "type": "Feature", "properties": { "name": "LCI–Antenne Antwerpen-Oost", "address": "Draakplaats  BE- 2018 Antwerpen" }, "geometry": { "type": "Point", "coordinates": [ 4.4322243, 51.205755 ] } },
{ "type": "Feature", "properties": { "name": "LCI-Antenne Zottegem", "address": "Broeder Mareslaan  BE- 9620 Zottegem" }, "geometry": { "type": "Point", "coordinates": [ 3.8160958, 50.871231 ] } },
{ "type": "Feature", "properties": { "name": "LCI-Antenne Zeebrugge", "address": "New Yorklaan  BE- 8380 Zeebrugge" }, "geometry": { "type": "Point", "coordinates": [ 3.1860466000001, 51.3303575 ] } },
{ "type": "Feature", "properties": { "name": "LCI-Antenne Zaventem", "address": "Heldenplein  BE- 1930 Zaventem" }, "geometry": { "type": "Point", "coordinates": [ 4.4714456, 50.8849484 ] } },
{ "type": "Feature", "properties": { "name": "LCI-Antenne Wondelgem", "address": "Molenstraat thv 37  BE- 9032 Wondelgem" }, "geometry": { "type": "Point", "coordinates": [ 3.7145649, 51.0854564 ] } },
{ "type": "Feature", "properties": { "name": "Werkplaats Roeselare", "address": "Beverensteenweg 177  BE- 8800 Roeselare" }, "geometry": { "type": "Point", "coordinates": [ 3.1304148, 50.9569791 ] } },
{ "type": "Feature", "properties": { "name": "South City", "address": "Place Marcel Broodthaers 2 1060 Bruxelles" }, "geometry": { "type": "Point", "coordinates": [ 4.337664, 50.8329984 ] } },
{ "type": "Feature", "properties": { "name": "Ringstation", "address": "Rue des Deux Gares, 82 1070 Anderlecht" }, "geometry": { "type": "Point", "coordinates": [ 4.3269562, 50.8322244 ] } },
{ "type": "Feature", "properties": { "name": "Recycling Office", "address": "Place Marcel Broodthaers, 2 - 1060 Bruxelles" }, "geometry": { "type": "Point", "coordinates": [ 4.3382224, 50.835775 ] } },
{ "type": "Feature", "properties": { "name": "LCI–Antenne Antwerpen-Oost", "address": "Draakplaats  BE- 2018 Antwerpen" }, "geometry": { "type": "Point", "coordinates": [ 4.4322243, 51.205755 ] } },
{ "type": "Feature", "properties": { "name": "LCI-Antenne Zottegem", "address": "Broeder Mareslaan  BE- 9620 Zottegem" }, "geometry": { "type": "Point", "coordinates": [ 3.8160958, 50.871231 ] } },
{ "type": "Feature", "properties": { "name": "LCI-Antenne Zeebrugge", "address": "New Yorklaan  BE- 8380 Zeebrugge" }, "geometry": { "type": "Point", "coordinates": [ 3.1860466000001, 51.3303575 ] } },
{ "type": "Feature", "properties": { "name": "LCI-Antenne Zaventem", "address": "Heldenplein  BE- 1930 Zaventem" }, "geometry": { "type": "Point", "coordinates": [ 4.4714456, 50.8849484 ] } },
{ "type": "Feature", "properties": { "name": "LCI-Antenne Wondelgem", "address": "Molenstraat thv 37  BE- 9032 Wondelgem" }, "geometry": { "type": "Point", "coordinates": [ 3.7145649, 51.0854564 ] } },
{ "type": "Feature", "properties": { "name": "Werkplaats Roeselare", "address": "Beverensteenweg 177  BE- 8800 Roeselare" }, "geometry": { "type": "Point", "coordinates": [ 3.1304148, 50.9569791 ] } },
{ "type": "Feature", "properties": { "name": "South City", "address": "Place Marcel Broodthaers 2 1060 Bruxelles" }, "geometry": { "type": "Point", "coordinates": [ 4.337664, 50.8329984 ] } },
{ "type": "Feature", "properties": { "name": "Ringstation", "address": "Rue des Deux Gares, 82 1070 Anderlecht" }, "geometry": { "type": "Point", "coordinates": [ 4.3269562, 50.8322244 ] } },
{ "type": "Feature", "properties": { "name": "Recycling Office", "address": "Place Marcel Broodthaers, 2 - 1060 Bruxelles" }, "geometry": { "type": "Point", "coordinates": [ 4.3382224, 50.835775 ] } },
{ "type": "Feature", "properties": { "name": "LCI–Antenne Antwerpen-Oost", "address": "Draakplaats  BE- 2018 Antwerpen" }, "geometry": { "type": "Point", "coordinates": [ 4.4322243, 51.205755 ] } },
{ "type": "Feature", "properties": { "name": "LCI-Antenne Zottegem", "address": "Broeder Mareslaan  BE- 9620 Zottegem" }, "geometry": { "type": "Point", "coordinates": [ 3.8160958, 50.871231 ] } },
{ "type": "Feature", "properties": { "name": "LCI-Antenne Zeebrugge", "address": "New Yorklaan  BE- 8380 Zeebrugge" }, "geometry": { "type": "Point", "coordinates": [ 3.1860466000001, 51.3303575 ] } },
{ "type": "Feature", "properties": { "name": "LCI-Antenne Zaventem", "address": "Heldenplein  BE- 1930 Zaventem" }, "geometry": { "type": "Point", "coordinates": [ 4.4714456, 50.8849484 ] } },
{ "type": "Feature", "properties": { "name": "LCI-Antenne Wondelgem", "address": "Molenstraat thv 37  BE- 9032 Wondelgem" }, "geometry": { "type": "Point", "coordinates": [ 3.7145649, 51.0854564 ] } },
{ "type": "Feature", "properties": { "name": "Werkplaats Roeselare", "address": "Beverensteenweg 177  BE- 8800 Roeselare" }, "geometry": { "type": "Point", "coordinates": [ 3.1304148, 50.9569791 ] } },
{ "type": "Feature", "properties": { "name": "South City", "address": "Place Marcel Broodthaers 2 1060 Bruxelles" }, "geometry": { "type": "Point", "coordinates": [ 4.337664, 50.8329984 ] } },
{ "type": "Feature", "properties": { "name": "Ringstation", "address": "Rue des Deux Gares, 82 1070 Anderlecht" }, "geometry": { "type": "Point", "coordinates": [ 4.3269562, 50.8322244 ] } },
{ "type": "Feature", "properties": { "name": "Recycling Office", "address": "Place Marcel Broodthaers, 2 - 1060 Bruxelles" }, "geometry": { "type": "Point", "coordinates": [ 4.3382224, 50.835775 ] } },
{ "type": "Feature", "properties": { "name": "LCI–Antenne Antwerpen-Oost", "address": "Draakplaats  BE- 2018 Antwerpen" }, "geometry": { "type": "Point", "coordinates": [ 4.4322243, 51.205755 ] } },
{ "type": "Feature", "properties": { "name": "LCI-Antenne Zottegem", "address": "Broeder Mareslaan  BE- 9620 Zottegem" }, "geometry": { "type": "Point", "coordinates": [ 3.8160958, 50.871231 ] } },
{ "type": "Feature", "properties": { "name": "LCI-Antenne Zeebrugge", "address": "New Yorklaan  BE- 8380 Zeebrugge" }, "geometry": { "type": "Point", "coordinates": [ 3.1860466000001, 51.3303575 ] } },
{ "type": "Feature", "properties": { "name": "LCI-Antenne Zaventem", "address": "Heldenplein  BE- 1930 Zaventem" }, "geometry": { "type": "Point", "coordinates": [ 4.4714456, 50.8849484 ] } },
{ "type": "Feature", "properties": { "name": "LCI-Antenne Wondelgem", "address": "Molenstraat thv 37  BE- 9032 Wondelgem" }, "geometry": { "type": "Point", "coordinates": [ 3.7145649, 51.0854564 ] } },
{ "type": "Feature", "properties": { "name": "Werkplaats Roeselare", "address": "Beverensteenweg 177  BE- 8800 Roeselare" }, "geometry": { "type": "Point", "coordinates": [ 3.1304148, 50.9569791 ] } },
{ "type": "Feature", "properties": { "name": "South City", "address": "Place Marcel Broodthaers 2 1060 Bruxelles" }, "geometry": { "type": "Point", "coordinates": [ 4.337664, 50.8329984 ] } },
{ "type": "Feature", "properties": { "name": "Ringstation", "address": "Rue des Deux Gares, 82 1070 Anderlecht" }, "geometry": { "type": "Point", "coordinates": [ 4.3269562, 50.8322244 ] } },
{ "type": "Feature", "properties": { "name": "Recycling Office", "address": "Place Marcel Broodthaers, 2 - 1060 Bruxelles" }, "geometry": { "type": "Point", "coordinates": [ 4.3382224, 50.835775 ] } },
{ "type": "Feature", "properties": { "name": "LCI–Antenne Antwerpen-Oost", "address": "Draakplaats  BE- 2018 Antwerpen" }, "geometry": { "type": "Point", "coordinates": [ 4.4322243, 51.205755 ] } },
{ "type": "Feature", "properties": { "name": "LCI-Antenne Zottegem", "address": "Broeder Mareslaan  BE- 9620 Zottegem" }, "geometry": { "type": "Point", "coordinates": [ 3.8160958, 50.871231 ] } },
{ "type": "Feature", "properties": { "name": "LCI-Antenne Zeebrugge", "address": "New Yorklaan  BE- 8380 Zeebrugge" }, "geometry": { "type": "Point", "coordinates": [ 3.1860466000001, 51.3303575 ] } },
{ "type": "Feature", "properties": { "name": "LCI-Antenne Zaventem", "address": "Heldenplein  BE- 1930 Zaventem" }, "geometry": { "type": "Point", "coordinates": [ 4.4714456, 50.8849484 ] } },
{ "type": "Feature", "properties": { "name": "LCI-Antenne Wondelgem", "address": "Molenstraat thv 37  BE- 9032 Wondelgem" }, "geometry": { "type": "Point", "coordinates": [ 3.7145649, 51.0854564 ] } }
]
}
